[
    {
        "scale_id": "SCL001",
        "location_name": "Nairobi",
        "latitude": -1.2921,
        "longitude": 36.8219,
        "last_maintenance": "2025-04-10",
        "status": "operational",
        "last_weight_reading": 1234.5,
        "last_updated": "2025-05-23T10:20:00"
    },
    {
        "scale_id": "SCL002",
        "location_name": "Mombasa",
        "latitude": -4.0435,
        "longitude": 39.6682,
        "last_maintenance": "2025-03-15",
        "status": "offline",
        "last_weight_reading": 0.0,
        "last_updated": "2025-05-20T08:15:00"
    },
    {
        "scale_id": "SCL003",
        "location_name": "Kisumu",
        "latitude": -0.0917,
        "longitude": 34.7679,
        "last_maintenance": "2025-02-28",
        "status": "error",
        "last_weight_reading": 0.0,
        "last_updated": "2025-05-21T12:45:00"
    },
    {
        "scale_id": "SCL004",
        "location_name": "Nakuru",
        "latitude": -0.3031,
        "longitude": 36.0800,
        "last_maintenance": "2025-01-20",
        "status": "operational",
        "last_weight_reading": 567.8,
        "last_updated": "2025-05-23T09:00:00"
    },
    {
        "scale_id": "SCL005",
        "location_name": "Eldoret",
        "latitude": 0.5201,
        "longitude": 35.2697,
        "last_maintenance": "2025-04-01",
        "status": "offline",
        "last_weight_reading": 0.0,
        "last_updated": "2025-05-22T14:00:00"
    }
]